[
  {
    "code": "万年红_中山外运码头",
    "name": "中山外运码头",
    "parent_name": "万年红",
    "province": "广东",
    "city": "中山",
    "lng": 113.332881,
    "lat": 22.302521
  },
  {
    "code": "万年红_中山小榄",
    "name": "中山小榄",
    "parent_name": "万年红",
    "province": "广东",
    "city": "中山",
    "lng": 113.265871,
    "lat": 22.664757
  },
  {
    "code": "万年红_中山港",
    "name": "中山港",
    "parent_name": "万年红",
    "province": "广东",
    "city": "中山",
    "lng": 113.493433,
    "lat": 22.566978
  },
  {
    "code": "万年红_中山黄圃港",
    "name": "中山黄圃港",
    "parent_name": "万年红",
    "province": "广东",
    "city": "中山",
    "lng": 113.406325,
    "lat": 22.736277
  },
  {
    "code": "万年红_江门外海外包",
    "name": "江门外海外包",
    "parent_name": "万年红",
    "province": "广东",
    "city": "江门",
    "lng": 113.17685,
    "lat": 22.555865
  },
  {
    "code": "万年红_江门高沙",
    "name": "江门高沙",
    "parent_name": "万年红",
    "province": "广东",
    "city": "江门",
    "lng": 113.104516,
    "lat": 22.62077
  },
  {
    "code": "万年红_珠海洪湾",
    "name": "珠海洪湾",
    "parent_name": "万年红",
    "province": "广东",
    "city": "珠海",
    "lng": 113.467438,
    "lat": 22.174091
  },
  {
    "code": "万年红_珠海神湾",
    "name": "珠海神湾",
    "parent_name": "万年红",
    "province": "广东",
    "city": "中山",
    "lng": 113.332881,
    "lat": 22.302521
  },
  {
    "code": "万年红_珠海西域",
    "name": "珠海西域",
    "parent_name": "万年红",
    "province": "广东",
    "city": "珠海",
    "lng": 113.494198,
    "lat": 22.168328
  },
  {
    "code": "万建达_防城港万建达堆场",
    "name": "防城港万建达堆场",
    "parent_name": "万建达",
    "province": "广西",
    "city": "防城港",
    "lng": 108.380273,
    "lat": 21.643426
  },
  {
    "code": "万永联_广西钦州外堆场万永联",
    "name": "广西钦州外堆场万永联",
    "parent_name": "万永联",
    "province": "广西",
    "city": "钦州",
    "lng": 108.659598,
    "lat": 21.689354
  },
  {
    "code": "万海通_东莞海腾码头",
    "name": "东莞海腾码头",
    "parent_name": "万海通",
    "province": "广东",
    "city": "东莞",
    "lng": 113.586573,
    "lat": 22.886838
  },
  {
    "code": "信步_北滘码头一期",
    "name": "北滘码头一期",
    "parent_name": "信步",
    "province": "广东",
    "city": "佛山",
    "lng": 113.225949,
    "lat": 22.897045
  },
  {
    "code": "信步_广西大德港",
    "name": "广西大德港",
    "parent_name": "信步",
    "province": "广西",
    "city": "百色",
    "lng": 106.603997,
    "lat": 23.219875
  },
  {
    "code": "信步_广西贺州",
    "name": "广西贺州",
    "parent_name": "信步",
    "province": "广西",
    "city": "贺州",
    "lng": 111.567216,
    "lat": 24.404182
  },
  {
    "code": "信步_揭阳红东码头",
    "name": "揭阳红东码头",
    "parent_name": "信步",
    "province": "广东",
    "city": "揭阳",
    "lng": 116.372732,
    "lat": 23.550968
  },
  {
    "code": "信步_黄埔集司A场",
    "name": "黄埔集司A场",
    "parent_name": "信步",
    "province": "广东",
    "city": "广州",
    "lng": 113.518428,
    "lat": 23.072805
  },
  {
    "code": "凯琪物流_昆明安宁海川",
    "name": "昆明安宁海川",
    "parent_name": "凯琪物流",
    "province": "云南",
    "city": "昆明",
    "lng": 102.497176,
    "lat": 24.900878
  },
  {
    "code": "凯琪物流_昆明阳都",
    "name": "昆明阳都",
    "parent_name": "凯琪物流",
    "province": "云南",
    "city": "昆明",
    "lng": 102.821369,
    "lat": 24.914446
  },
  {
    "code": "别志_云浮新港别志",
    "name": "云浮新港别志",
    "parent_name": "别志",
    "province": "广东",
    "city": "云浮",
    "lng": 112.039531,
    "lat": 23.066667
  },
  {
    "code": "北部湾运营中心_广西钦州外堆场自营",
    "name": "广西钦州外堆场自营",
    "parent_name": "北部湾运营中心",
    "province": "广西",
    "city": "钦州",
    "lng": 108.611026,
    "lat": 21.832778
  },
  {
    "code": "北部湾运营中心_广西钦州港自营",
    "name": "广西钦州港自营",
    "parent_name": "北部湾运营中心",
    "province": "广西",
    "city": "钦州",
    "lng": 108.659598,
    "lat": 21.689354
  },
  {
    "code": "北部湾运营中心_防城港二堆场",
    "name": "防城港二堆场",
    "parent_name": "北部湾运营中心",
    "province": "广西",
    "city": "防城港",
    "lng": 108.380273,
    "lat": 21.643426
  },
  {
    "code": "北部湾运营中心_防城港外堆场",
    "name": "防城港外堆场",
    "parent_name": "北部湾运营中心",
    "province": "广西",
    "city": "防城港",
    "lng": 108.340973,
    "lat": 21.617689
  },
  {
    "code": "华慧良修_深圳蛇口二堆场",
    "name": "深圳蛇口二堆场",
    "parent_name": "华慧良修",
    "province": "广东",
    "city": "深圳",
    "lng": 113.87485,
    "lat": 22.508176
  },
  {
    "code": "华慧良修_深圳蛇口堆场",
    "name": "深圳蛇口堆场",
    "parent_name": "华慧良修",
    "province": "广东",
    "city": "深圳",
    "lng": 113.89757,
    "lat": 22.526116
  },
  {
    "code": "华慧良修_深圳龙岗堆场",
    "name": "深圳龙岗堆场",
    "parent_name": "华慧良修",
    "province": "广东",
    "city": "深圳",
    "lng": 114.127702,
    "lat": 22.654481
  },
  {
    "code": "南宁亿邦_广西梧州赤水港",
    "name": "广西梧州赤水港",
    "parent_name": "南宁亿邦",
    "province": "广西",
    "city": "梧州",
    "lng": 111.274276,
    "lat": 23.486279
  },
  {
    "code": "南宁亿邦_贺州堆场",
    "name": "贺州堆场",
    "parent_name": "南宁亿邦",
    "province": "广西",
    "city": "贺州",
    "lng": 111.496517,
    "lat": 24.499113
  },
  {
    "code": "南岗分公司_东江仓码头",
    "name": "东江仓码头",
    "parent_name": "南岗分公司",
    "province": "广东",
    "city": "广州",
    "lng": 113.459679,
    "lat": 23.092354
  },
  {
    "code": "南岗分公司_南岗堆场",
    "name": "南岗堆场",
    "parent_name": "南岗分公司",
    "province": "广东",
    "city": "广州",
    "lng": 113.71595,
    "lat": 23.277028
  },
  {
    "code": "南岗分公司_广物物资码头自营",
    "name": "广物物资码头自营",
    "parent_name": "南岗分公司",
    "province": "广东",
    "city": "广州",
    "lng": 113.534713,
    "lat": 23.057205
  },
  {
    "code": "坚迅_乌冲口姬堂",
    "name": "乌冲口姬堂",
    "parent_name": "坚迅",
    "province": "广东",
    "city": "广州",
    "lng": 113.466375,
    "lat": 23.131025
  },
  {
    "code": "坚迅_云浮港盛码头",
    "name": "云浮港盛码头",
    "parent_name": "坚迅",
    "province": "广东",
    "city": "云浮",
    "lng": 112.160259,
    "lat": 23.07009
  },
  {
    "code": "坚迅_佛山南利",
    "name": "佛山南利",
    "parent_name": "坚迅",
    "province": "广东",
    "city": "佛山",
    "lng": 112.999813,
    "lat": 23.037829
  },
  {
    "code": "坚迅_北滘码头二期",
    "name": "北滘码头二期",
    "parent_name": "坚迅",
    "province": "广东",
    "city": "佛山",
    "lng": 113.216649,
    "lat": 22.898976
  },
  {
    "code": "坚迅_广州鸦岗",
    "name": "广州鸦岗",
    "parent_name": "坚迅",
    "province": "广东",
    "city": "广州",
    "lng": 113.134297,
    "lat": 23.349245
  },
  {
    "code": "坚迅_江门九江坚迅",
    "name": "江门九江坚迅",
    "parent_name": "坚迅",
    "province": "广东",
    "city": "佛山",
    "lng": 113.034626,
    "lat": 22.814428
  },
  {
    "code": "坚迅_顺德北滘堆场",
    "name": "顺德北滘堆场",
    "parent_name": "坚迅",
    "province": "广东",
    "city": "佛山",
    "lng": 113.219489,
    "lat": 22.899086
  },
  {
    "code": "广州一鸣_清新港",
    "name": "清新港",
    "parent_name": "广州一鸣",
    "province": "广东",
    "city": "清远",
    "lng": 113.014045,
    "lat": 23.732467
  },
  {
    "code": "广州弘运_三水新港",
    "name": "三水新港",
    "parent_name": "广州弘运",
    "province": "广东",
    "city": "佛山",
    "lng": 112.820595,
    "lat": 23.104795
  },
  {
    "code": "广州弘运_东莞石龙",
    "name": "东莞石龙",
    "parent_name": "广州弘运",
    "province": "广东",
    "city": "惠州",
    "lng": 113.855243,
    "lat": 23.117842
  },
  {
    "code": "广州弘运_乐平码头弘运",
    "name": "乐平码头弘运",
    "parent_name": "广州弘运",
    "province": "广东",
    "city": "佛山",
    "lng": 113.021961,
    "lat": 23.266873
  },
  {
    "code": "广州弘运_九江欧浦",
    "name": "九江欧浦",
    "parent_name": "广州弘运",
    "province": "广东",
    "city": "佛山",
    "lng": 113.034626,
    "lat": 22.814428
  },
  {
    "code": "广州弘运_云浮新港",
    "name": "云浮新港",
    "parent_name": "广州弘运",
    "province": "广东",
    "city": "云浮",
    "lng": 112.039531,
    "lat": 23.066667
  },
  {
    "code": "广州弘运_南沙一期弘运",
    "name": "南沙一期弘运",
    "parent_name": "广州弘运",
    "province": "广东",
    "city": "广州",
    "lng": 113.667709,
    "lat": 22.637411
  },
  {
    "code": "广州弘运_南沙二期弘运",
    "name": "南沙二期弘运",
    "parent_name": "广州弘运",
    "province": "广东",
    "city": "广州",
    "lng": 113.667709,
    "lat": 22.637411
  },
  {
    "code": "广州弘运_南沙弘运外堆场",
    "name": "南沙弘运外堆场",
    "parent_name": "广州弘运",
    "province": "广东",
    "city": "广州",
    "lng": 113.667709,
    "lat": 22.637411
  },
  {
    "code": "广州弘运_广西钦州外堆场弘运",
    "name": "广西钦州外堆场弘运",
    "parent_name": "广州弘运",
    "province": "广西",
    "city": "钦州",
    "lng": 108.653653,
    "lat": 21.723621
  },
  {
    "code": "广州弘运_惠州堆场",
    "name": "惠州堆场",
    "parent_name": "广州弘运",
    "province": "广东",
    "city": "惠州",
    "lng": 114.332986,
    "lat": 23.031743
  },
  {
    "code": "广州弘运_新会亚太",
    "name": "新会亚太",
    "parent_name": "广州弘运",
    "province": "广东",
    "city": "江门",
    "lng": 113.003622,
    "lat": 22.433522
  },
  {
    "code": "广州弘运_新会新港",
    "name": "新会新港",
    "parent_name": "广州弘运",
    "province": "广东",
    "city": "江门",
    "lng": 113.032996,
    "lat": 22.512227
  },
  {
    "code": "广州弘运_梧州港",
    "name": "梧州港",
    "parent_name": "广州弘运",
    "province": "广西",
    "city": "梧州",
    "lng": 111.324512,
    "lat": 23.471134
  },
  {
    "code": "广州弘运_江门双水",
    "name": "江门双水",
    "parent_name": "广州弘运",
    "province": "广东",
    "city": "江门",
    "lng": 112.985972,
    "lat": 22.448386
  },
  {
    "code": "广州弘运_江门天马港",
    "name": "江门天马港",
    "parent_name": "广州弘运",
    "province": "广东",
    "city": "江门",
    "lng": 113.046082,
    "lat": 22.464926
  },
  {
    "code": "广州弘运_江门李锦记",
    "name": "江门李锦记",
    "parent_name": "广州弘运",
    "province": "广东",
    "city": "江门",
    "lng": 112.94727,
    "lat": 22.486655
  },
  {
    "code": "广州弘运_江门鹤山",
    "name": "江门鹤山",
    "parent_name": "广州弘运",
    "province": "广东",
    "city": "江门",
    "lng": 113.008298,
    "lat": 22.797388
  },
  {
    "code": "广州弘运_肇庆三榕",
    "name": "肇庆三榕",
    "parent_name": "广州弘运",
    "province": "广东",
    "city": "肇庆",
    "lng": 112.406596,
    "lat": 23.079065
  },
  {
    "code": "广州弘运_肇庆康州港",
    "name": "肇庆康州港",
    "parent_name": "广州弘运",
    "province": "广东",
    "city": "肇庆",
    "lng": 111.799074,
    "lat": 23.139993
  },
  {
    "code": "广州弘运_肇庆高要",
    "name": "肇庆高要",
    "parent_name": "广州弘运",
    "province": "广东",
    "city": "肇庆",
    "lng": 112.427092,
    "lat": 23.036559
  },
  {
    "code": "广州弘运_花都巴江",
    "name": "花都巴江",
    "parent_name": "广州弘运",
    "province": "广东",
    "city": "广州",
    "lng": 113.134297,
    "lat": 23.349245
  },
  {
    "code": "广州弘运_防城港",
    "name": "防城港",
    "parent_name": "广州弘运",
    "province": "广西",
    "city": "防城港",
    "lng": 108.340973,
    "lat": 21.617689
  },
  {
    "code": "广州弘运_高明珠江码头外包",
    "name": "高明珠江码头外包",
    "parent_name": "广州弘运",
    "province": "广东",
    "city": "佛山",
    "lng": 112.922113,
    "lat": 22.873527
  },
  {
    "code": "广州弘运_黄埔集司",
    "name": "黄埔集司",
    "parent_name": "广州弘运",
    "province": "广东",
    "city": "广州",
    "lng": 113.480613,
    "lat": 23.181355
  },
  {
    "code": "广州运营中心_南沙一期码头",
    "name": "南沙一期码头",
    "parent_name": "广州运营中心",
    "province": "广东",
    "city": "广州",
    "lng": 113.667709,
    "lat": 22.637411
  },
  {
    "code": "广州运营中心_南沙三期自营",
    "name": "南沙三期自营",
    "parent_name": "广州运营中心",
    "province": "广东",
    "city": "广州",
    "lng": 113.667709,
    "lat": 22.637411
  },
  {
    "code": "广州运营中心_南沙二期",
    "name": "南沙二期",
    "parent_name": "广州运营中心",
    "province": "广东",
    "city": "广州",
    "lng": 113.667709,
    "lat": 22.637411
  },
  {
    "code": "广州运营中心_南沙四期自营",
    "name": "南沙四期自营",
    "parent_name": "广州运营中心",
    "province": "广东",
    "city": "广州",
    "lng": 113.667709,
    "lat": 22.637411
  },
  {
    "code": "广州运营中心_惠州龙溪",
    "name": "惠州龙溪",
    "parent_name": "广州运营中心",
    "province": "广东",
    "city": "惠州",
    "lng": 114.119968,
    "lat": 23.128067
  },
  {
    "code": "广州运营中心_新沙港",
    "name": "新沙港",
    "parent_name": "广州运营中心",
    "province": "广东",
    "city": "东莞",
    "lng": 113.538278,
    "lat": 23.011238
  },
  {
    "code": "广州运营中心_淡水河码头",
    "name": "淡水河码头",
    "parent_name": "广州运营中心",
    "province": "广东",
    "city": "广州",
    "lng": 113.62,
    "lat": 23.15
  },
  {
    "code": "广州运营中心_虎门三期码头",
    "name": "虎门三期码头",
    "parent_name": "广州运营中心",
    "province": "广东",
    "city": "东莞",
    "lng": 113.590351,
    "lat": 22.854066
  },
  {
    "code": "广州运营中心_虎门二期码头",
    "name": "虎门二期码头",
    "parent_name": "广州运营中心",
    "province": "广东",
    "city": "东莞",
    "lng": 113.590351,
    "lat": 22.854066
  },
  {
    "code": "广州运营中心_虎门港一期",
    "name": "虎门港一期",
    "parent_name": "广州运营中心",
    "province": "广东",
    "city": "东莞",
    "lng": 113.590351,
    "lat": 22.854066
  },
  {
    "code": "广州运营中心_黄埔旧港",
    "name": "黄埔旧港",
    "parent_name": "广州运营中心",
    "province": "广东",
    "city": "广州",
    "lng": 113.450125,
    "lat": 23.093402
  },
  {
    "code": "广通_深圳盐田合作堆场",
    "name": "深圳盐田合作堆场",
    "parent_name": "广通",
    "province": "广东",
    "city": "深圳",
    "lng": 114.289332,
    "lat": 22.581126
  },
  {
    "code": "弘运天浩_佛山南海北村码头",
    "name": "佛山南海北村码头",
    "parent_name": "弘运天浩",
    "province": "广东",
    "city": "佛山",
    "lng": 113.153027,
    "lat": 23.085663
  },
  {
    "code": "弘运天浩_佛山平洲南港码头",
    "name": "佛山平洲南港码头",
    "parent_name": "弘运天浩",
    "province": "广东",
    "city": "佛山",
    "lng": 113.215582,
    "lat": 23.039284
  },
  {
    "code": "弘运天浩_江门三埠港",
    "name": "江门三埠港",
    "parent_name": "弘运天浩",
    "province": "广东",
    "city": "江门",
    "lng": 112.719628,
    "lat": 22.370642
  },
  {
    "code": "弘运天浩_江门公益港",
    "name": "江门公益港",
    "parent_name": "弘运天浩",
    "province": "广东",
    "city": "江门",
    "lng": 112.781262,
    "lat": 22.434235
  },
  {
    "code": "弘运天浩_清远港",
    "name": "清远港",
    "parent_name": "弘运天浩",
    "province": "广东",
    "city": "清远",
    "lng": 113.009914,
    "lat": 23.687596
  },
  {
    "code": "弘运天浩_珠海斗门",
    "name": "珠海斗门",
    "parent_name": "弘运天浩",
    "province": "广东",
    "city": "珠海",
    "lng": 113.332857,
    "lat": 22.271632
  },
  {
    "code": "弘运天浩_肇庆南江四会外包",
    "name": "肇庆南江四会外包",
    "parent_name": "弘运天浩",
    "province": "广东",
    "city": "肇庆",
    "lng": 112.829522,
    "lat": 23.220048
  },
  {
    "code": "弘运天浩_肇庆马房",
    "name": "肇庆马房",
    "parent_name": "弘运天浩",
    "province": "广东",
    "city": "肇庆",
    "lng": 112.800984,
    "lat": 23.230582
  },
  {
    "code": "弘运天浩_肇庆马房四会",
    "name": "肇庆马房(四会)",
    "parent_name": "弘运天浩",
    "province": "广东",
    "city": "肇庆",
    "lng": 112.800984,
    "lat": 23.230582
  },
  {
    "code": "弘运天浩_莲花山",
    "name": "莲花山",
    "parent_name": "弘运天浩",
    "province": "广东",
    "city": "广州",
    "lng": 113.506642,
    "lat": 22.967267
  },
  {
    "code": "弘运天浩_顺德勒流",
    "name": "顺德勒流",
    "parent_name": "弘运天浩",
    "province": "广东",
    "city": "佛山",
    "lng": 113.208369,
    "lat": 22.873369
  },
  {
    "code": "弘运天浩_顺德容奇",
    "name": "顺德容奇",
    "parent_name": "弘运天浩",
    "province": "广东",
    "city": "佛山",
    "lng": 113.287585,
    "lat": 22.779437
  },
  {
    "code": "弘运天浩_顺德颐德",
    "name": "顺德颐德",
    "parent_name": "弘运天浩",
    "province": "广东",
    "city": "佛山",
    "lng": 113.109599,
    "lat": 22.77104
  },
  {
    "code": "星之航_深圳大铲湾堆场",
    "name": "深圳大铲湾堆场",
    "parent_name": "星之航",
    "province": "广东",
    "city": "深圳",
    "lng": 113.853384,
    "lat": 22.55553
  },
  {
    "code": "本港_佛山三水南港本港",
    "name": "佛山三水南港本港",
    "parent_name": "本港",
    "province": "广东",
    "city": "佛山",
    "lng": 112.862719,
    "lat": 23.160074
  },
  {
    "code": "本港_佛山顺乐本港",
    "name": "佛山顺乐本港",
    "parent_name": "本港",
    "province": "广东",
    "city": "佛山",
    "lng": 113.050631,
    "lat": 22.915737
  },
  {
    "code": "本港_炭步新港",
    "name": "炭步新港",
    "parent_name": "本港",
    "province": "广东",
    "city": "广州",
    "lng": 113.134297,
    "lat": 23.349245
  },
  {
    "code": "本港_肇庆三榕本港",
    "name": "肇庆三榕本港",
    "parent_name": "本港",
    "province": "广东",
    "city": "肇庆",
    "lng": 112.406372,
    "lat": 23.080319
  },
  {
    "code": "汕头裕港_蓝口铁路站点",
    "name": "蓝口铁路站点",
    "parent_name": "汕头裕港",
    "province": "广西",
    "city": "贺州",
    "lng": 111.435207,
    "lat": 24.572997
  },
  {
    "code": "泓洋_开平水口码头",
    "name": "开平水口码头",
    "parent_name": "泓洋",
    "province": "广东",
    "city": "江门",
    "lng": 112.730034,
    "lat": 22.4731
  },
  {
    "code": "泓洋_武宣龙从码头",
    "name": "武宣龙从码头",
    "parent_name": "泓洋",
    "province": "广西",
    "city": "来宾",
    "lng": 109.697145,
    "lat": 23.55443
  },
  {
    "code": "浚得兴_东莞鹏成码头",
    "name": "东莞鹏成码头",
    "parent_name": "浚得兴",
    "province": "广东",
    "city": "东莞",
    "lng": 113.558464,
    "lat": 23.075322
  },
  {
    "code": "浚得兴_佛山永泰码头",
    "name": "佛山永泰码头",
    "parent_name": "浚得兴",
    "province": "广东",
    "city": "佛山",
    "lng": 113.268824,
    "lat": 22.88872
  },
  {
    "code": "浚得兴_华津码头",
    "name": "华津码头",
    "parent_name": "浚得兴",
    "province": "广东",
    "city": "江门",
    "lng": 113.098783,
    "lat": 22.363312
  },
  {
    "code": "浚得兴_广西梧州大利口",
    "name": "广西梧州大利口",
    "parent_name": "浚得兴",
    "province": "广西",
    "city": "梧州",
    "lng": 111.308435,
    "lat": 23.552826
  },
  {
    "code": "浚得兴_广西紫金村",
    "name": "广西紫金村",
    "parent_name": "浚得兴",
    "province": "广西",
    "city": "梧州",
    "lng": 111.343926,
    "lat": 23.465908
  },
  {
    "code": "浚得兴_江门奔达码头",
    "name": "江门奔达码头",
    "parent_name": "浚得兴",
    "province": "广东",
    "city": "江门",
    "lng": 112.767694,
    "lat": 22.445807
  },
  {
    "code": "深圳天河_佛山三山",
    "name": "佛山三山",
    "parent_name": "深圳天河",
    "province": "广东",
    "city": "佛山",
    "lng": 113.245462,
    "lat": 22.999256
  },
  {
    "code": "深圳运营中心_汕头国集",
    "name": "汕头国集",
    "parent_name": "深圳运营中心",
    "province": "广东",
    "city": "汕头",
    "lng": 116.685445,
    "lat": 23.251414
  },
  {
    "code": "深圳运营中心_汕头堆场",
    "name": "汕头堆场",
    "parent_name": "深圳运营中心",
    "province": "广东",
    "city": "汕头",
    "lng": 116.764791,
    "lat": 23.269736
  },
  {
    "code": "深圳运营中心_汕头广澳",
    "name": "汕头广澳",
    "parent_name": "深圳运营中心",
    "province": "广东",
    "city": "汕头",
    "lng": 116.767553,
    "lat": 23.268286
  },
  {
    "code": "深圳运营中心_深圳大铲湾",
    "name": "深圳大铲湾",
    "parent_name": "深圳运营中心",
    "province": "广东",
    "city": "深圳",
    "lng": 113.863235,
    "lat": 22.531264
  },
  {
    "code": "港信_惠州港",
    "name": "惠州港",
    "parent_name": "港信",
    "province": "广东",
    "city": "惠州",
    "lng": 114.555056,
    "lat": 22.735245
  },
  {
    "code": "珠三角运营中心_佛山南庄",
    "name": "佛山南庄",
    "parent_name": "珠三角运营中心",
    "province": "广东",
    "city": "佛山",
    "lng": 112.991064,
    "lat": 23.003618
  },
  {
    "code": "珠三角运营中心_佛山南鲲",
    "name": "佛山南鲲",
    "parent_name": "珠三角运营中心",
    "province": "广东",
    "city": "佛山",
    "lng": 112.923392,
    "lat": 22.86843
  },
  {
    "code": "珠三角运营中心_佛山顺乐自营",
    "name": "佛山顺乐自营",
    "parent_name": "珠三角运营中心",
    "province": "广东",
    "city": "佛山",
    "lng": 113.050631,
    "lat": 22.915737
  },
  {
    "code": "珠三角运营中心_佛山高明外堆场",
    "name": "佛山高明外堆场",
    "parent_name": "珠三角运营中心",
    "province": "广东",
    "city": "佛山",
    "lng": 112.922113,
    "lat": 22.873527
  },
  {
    "code": "珠三角运营中心_佛山高明战备码头",
    "name": "佛山高明战备码头",
    "parent_name": "珠三角运营中心",
    "province": "广东",
    "city": "佛山",
    "lng": 112.922113,
    "lat": 22.873527
  },
  {
    "code": "珠三角运营中心_佛山高明珠江码头",
    "name": "佛山高明珠江码头",
    "parent_name": "珠三角运营中心",
    "province": "广东",
    "city": "佛山",
    "lng": 112.922113,
    "lat": 22.873527
  },
  {
    "code": "珠三角运营中心_江门外海",
    "name": "江门外海",
    "parent_name": "珠三角运营中心",
    "province": "广东",
    "city": "江门",
    "lng": 113.17685,
    "lat": 22.555865
  },
  {
    "code": "珠三角运营中心_珠海高栏",
    "name": "珠海高栏",
    "parent_name": "珠三角运营中心",
    "province": "广东",
    "city": "珠海",
    "lng": 113.236657,
    "lat": 21.935698
  },
  {
    "code": "珠三角运营中心_白坭南拓",
    "name": "白坭南拓",
    "parent_name": "珠三角运营中心",
    "province": "广东",
    "city": "佛山",
    "lng": 112.837407,
    "lat": 23.044052
  },
  {
    "code": "珠三角运营中心_肇庆南江",
    "name": "肇庆南江",
    "parent_name": "珠三角运营中心",
    "province": "广东",
    "city": "肇庆",
    "lng": 112.829522,
    "lat": 23.220048
  },
  {
    "code": "珠三角运营中心_肇庆新港",
    "name": "肇庆新港",
    "parent_name": "珠三角运营中心",
    "province": "广东",
    "city": "肇庆",
    "lng": 112.645643,
    "lat": 23.186464
  },
  {
    "code": "珠三角运营中心_贵阳陆港铁路场",
    "name": "贵阳陆港铁路场",
    "parent_name": "珠三角运营中心",
    "province": "贵州",
    "city": "贵阳",
    "lng": 106.710537,
    "lat": 26.69016
  },
  {
    "code": "珠三角运营中心_顺德中储粮",
    "name": "顺德中储粮",
    "parent_name": "珠三角运营中心",
    "province": "广东",
    "city": "佛山",
    "lng": 113.109599,
    "lat": 22.77104
  },
  {
    "code": "珠三角运营中心_顺德乐从",
    "name": "顺德乐从",
    "parent_name": "珠三角运营中心",
    "province": "广东",
    "city": "佛山",
    "lng": 113.082951,
    "lat": 22.900843
  },
  {
    "code": "珠三角运营中心_高明高荷码头",
    "name": "高明高荷码头",
    "parent_name": "珠三角运营中心",
    "province": "广东",
    "city": "佛山",
    "lng": 112.922113,
    "lat": 22.873527
  },
  {
    "code": "粤西运营中心_水东",
    "name": "水东",
    "parent_name": "粤西运营中心",
    "province": "广东",
    "city": "茂名",
    "lng": 111.052657,
    "lat": 21.463342
  },
  {
    "code": "粤西运营中心_湛江外堆场",
    "name": "湛江外堆场",
    "parent_name": "粤西运营中心",
    "province": "广东",
    "city": "湛江",
    "lng": 110.389894,
    "lat": 21.154074
  },
  {
    "code": "粤西运营中心_湛江港",
    "name": "湛江港",
    "parent_name": "粤西运营中心",
    "province": "广东",
    "city": "湛江",
    "lng": 110.392907,
    "lat": 21.139739
  },
  {
    "code": "裕丰_广西中储粮",
    "name": "广西中储粮",
    "parent_name": "裕丰",
    "province": "广西",
    "city": "梧州",
    "lng": 111.338433,
    "lat": 23.463446
  },
  {
    "code": "裕丰_广西名燕",
    "name": "广西名燕",
    "parent_name": "裕丰",
    "province": "广西",
    "city": "",
    "lng": 108.327537,
    "lat": 22.816659
  },
  {
    "code": "裕丰_广西新龙",
    "name": "广西新龙",
    "parent_name": "裕丰",
    "province": "广西",
    "city": "贵港",
    "lng": 109.974138,
    "lat": 23.234519
  },
  {
    "code": "裕丰_广西武宣",
    "name": "广西武宣",
    "parent_name": "裕丰",
    "province": "广西",
    "city": "来宾",
    "lng": 109.697145,
    "lat": 23.55443
  },
  {
    "code": "裕丰_广西武林",
    "name": "广西武林",
    "parent_name": "裕丰",
    "province": "广西",
    "city": "贵港",
    "lng": 110.528003,
    "lat": 23.436879
  },
  {
    "code": "裕丰_广西武林通洲码头",
    "name": "广西武林通洲码头",
    "parent_name": "裕丰",
    "province": "广西",
    "city": "贵港",
    "lng": 110.539797,
    "lat": 23.418617
  },
  {
    "code": "裕丰_广西苏湾港",
    "name": "广西苏湾港",
    "parent_name": "裕丰",
    "province": "广西",
    "city": "贵港",
    "lng": 109.681643,
    "lat": 23.094963
  },
  {
    "code": "裕丰_广西贵港",
    "name": "广西贵港",
    "parent_name": "裕丰",
    "province": "广西",
    "city": "贵港",
    "lng": 110.346667,
    "lat": 23.423183
  },
  {
    "code": "辉成_阳江港外包",
    "name": "阳江港外包",
    "parent_name": "辉成",
    "province": "广东",
    "city": "阳江",
    "lng": 111.85825,
    "lat": 21.700105
  },
  {
    "code": "钦州弘运_北海港",
    "name": "北海港",
    "parent_name": "钦州弘运",
    "province": "广西",
    "city": "北海",
    "lng": 109.077104,
    "lat": 21.464891
  },
  {
    "code": "钦州弘运_广西钦州港外包",
    "name": "广西钦州港外包",
    "parent_name": "钦州弘运",
    "province": "广西",
    "city": "钦州",
    "lng": 108.644492,
    "lat": 21.736567
  },
  {
    "code": "钦州弘运_广西铁山港",
    "name": "广西铁山港",
    "parent_name": "钦州弘运",
    "province": "广西",
    "city": "北海",
    "lng": 109.422099,
    "lat": 21.529878
  },
  {
    "code": "钦州弘运_广西铁山港外堆场",
    "name": "广西铁山港外堆场",
    "parent_name": "钦州弘运",
    "province": "广西",
    "city": "北海",
    "lng": 109.495665,
    "lat": 21.546818
  },
  {
    "code": "钦州弘运_铁山东岸港",
    "name": "铁山东岸港",
    "parent_name": "钦州弘运",
    "province": "广西",
    "city": "北海",
    "lng": 109.495665,
    "lat": 21.546818
  },
  {
    "code": "钦州弘运_防城港钦州弘运",
    "name": "防城港钦州弘运",
    "parent_name": "钦州弘运",
    "province": "广西",
    "city": "防城港",
    "lng": 108.380273,
    "lat": 21.643426
  }
]